[{
    "id": 281474996574951,
    "Name": "ИП МИХАЙЛЕНКО АЛЕКСАНДР ЕВГЕНЬЕВ",
    "Street": "Г. КРАСНОКАМЕНСК; МКР. 5-Й; Д.508; ВЕСНА",
    "Latitude": 5005.7459,
    "Longitude": 11801.8784
}, {
    "id": 281474996575049,
    "Name": "ИП ТУРАНОВА АЛЬБИНА СЕМЕНОВНА",
    "Street": "Г. КРАСНОКАМЕНСК; МКР.7; Д.6Ц; МПК; 4Ц",
    "Latitude": 5005.7025,
    "Longitude": 11802.5978
}, {
    "id": 281474996575426,
    "Name": "ИП ВАСАЛАТИЙ АЛЕКСЕЙ ИВАНОВИЧ",
    "Street": "Г. КРАСНОКАМЕНСК; 1-Й МКР.; Д.117;",
    "Latitude": 5005.7868,
    "Longitude": 11802.1059
}, {
    "id": 281474996575427,
    "Name": "ИП ВАСАЛАТИЙ АЛЕКСЕЙ ИВАНОВИЧ",
    "Street": "Г. КРАСНОКАМЕНСК; 6-Й МКР.; Д.630;",
    "Latitude": 5005.7792,
    "Longitude": 11802.4228
}, {
    "id": 281474996575558,
    "Name": "ИП КОРНЮХ БОРИС ВЛАДИМИРОВИЧ",
    "Street": "Г. КРАСНОКАМЕНСК; МКРН 6; Д.608А",
    "Latitude": 5005.9664,
    "Longitude": 11802.8254
}, {
    "id": 281474996575565,
    "Name": "ИП ОГАННИСЯН ТАРОН ОГАННЕСОВИЧ",
    "Street": "Г. КРАСНОКАМЕНСК; УЛ. ЦЕНТРАЛЬНАЯ; Д.1Ц",
    "Latitude": 5005.7067,
    "Longitude": 11802.1086
}, {
    "id": 281474996575574,
    "Name": "ИП МАКСАРОВ МУНКО ДОРЖИЕВИЧ",
    "Street": "Г. КРАСНОКАМЕНСК; МКР.5; Д.511",
    "Latitude": 5005.7968,
    "Longitude": 11802.1678
}, {
    "id": 281474996575660,
    "Name": "ИП КРИВОРУЧКО ЛАРИСА ВАЛЕРЬЕВНА",
    "Street": "Г. КРАСНОКАМЕНСК; МКР. 6-Й; Д.602; М-Н СМАК",
    "Latitude": 5006.032,
    "Longitude": 11802.6141
}, {
    "id": 281474996575791,
    "Name": "ИП МИХАЙЛЕНКО АЛЕКСАНДР ЕВГЕНЬЕВ",
    "Street": "Г. КРАСНОКАМЕНСК; МКР. 2-Й; Д.211/1; М-Н БОГАТСВО СИБ",
    "Latitude": 5005.9287,
    "Longitude": 11801.9037
}, {
    "id": 281474996575936,
    "Name": "ИП РЗАЕВА ВЕНЕРА ФАХРАДДИН КЫЗЫ",
    "Street": "Г. КРАСНОКАМЕНСК; МКРН. 1; Д.115; СТР.1",
    "Latitude": 5005.9092,
    "Longitude": 11802.1829
}]